City,Lat,Lng,Max Temp,Humidity,Cloudiness,Wind Speed,Country,Date
Lompoc,34.6391,-120.4579,54.12,79,0,4.61,US,1644074478
Kulhudhuffushi,6.6221,73.07,80.87,70,25,11.41,MV,1644074491
Port Alfred,-33.5906,26.891,70.05,83,98,23.62,ZA,1644074542
Ati,13.2154,18.3353,85.06,10,7,12.84,TD,1644074492
Mount Gambier,-37.8333,140.7667,61.75,67,94,8.03,AU,1644074543
Tuktoyaktuk,69.4541,-133.0374,-29.2,68,0,8.05,CA,1644074543
Arraial do Cabo,-22.9661,-42.0278,89.56,62,0,12.66,BR,1644074493
Atuona,-9.8,-139.0333,78.22,77,8,19.69,PF,1644074229
Kapaa,22.0752,-159.319,66.11,59,40,6.91,US,1644074494
Bluff,-46.6,168.3333,50.09,76,26,5.12,NZ,1644074378
Mar del Plata,-38.0023,-57.5575,66.22,88,100,13.0,AR,1644074271
Tshane,-24.0196,21.8684,87.66,31,92,10.0,BW,1644074544
Olinda,-8.0089,-34.8553,87.53,58,40,8.05,BR,1644074495
Mataura,-46.1927,168.8643,41.11,98,18,1.23,NZ,1644074123
Province of Brindisi,40.5833,17.6667,59.99,73,70,8.12,IT,1644074545
Nizhniy Tsasuchey,50.5167,115.1333,-1.26,92,48,7.49,RU,1644074545
Manzanillo,20.3433,-77.1167,81.18,42,3,13.35,CU,1644074545
Puerto Ayora,-0.7393,-90.3518,80.56,92,46,4.0,EC,1644074473
Zabid,14.1951,43.3152,79.54,63,83,14.85,YE,1644074546
Cidreira,-30.1811,-50.2056,83.91,67,93,8.66,BR,1644074546
Ilulissat,69.2167,-51.1,6.82,51,75,13.8,GL,1644074546
Rikitea,-23.1203,-134.9692,78.37,73,22,11.07,PF,1644074547
Hermanus,-34.4187,19.2345,91.9,50,38,22.95,ZA,1644074498
Karratha,-20.7377,116.8463,85.3,73,76,4.85,AU,1644074535
Hithadhoo,-0.6,73.0833,82.62,74,100,12.41,MV,1644074547
Rio Grande,-32.035,-52.0986,82.51,70,99,10.38,BR,1644074548
Busselton,-33.65,115.3333,71.04,78,0,5.68,AU,1644074294
Vaini,-21.2,-175.2,75.36,100,100,8.05,TO,1644074548
Te Anau,-45.4167,167.7167,40.89,94,15,2.53,NZ,1644074549
Kaitangata,-46.2817,169.8464,51.93,82,49,4.45,NZ,1644074549
Mokhotlong,-29.2894,29.0675,57.11,90,83,5.44,LS,1644074549
Thompson,55.7435,-97.8558,-41.64,66,20,0.0,CA,1644074550
Bang Saphan,11.2126,99.5117,75.13,89,13,2.24,TH,1644074550
Santiago del Estero,-27.7951,-64.2615,86.32,44,0,6.38,AR,1644074550
Coquimbo,-29.9533,-71.3436,67.73,77,20,16.11,CL,1644074551
Touros,-5.1989,-35.4608,88.7,52,30,13.8,BR,1644074551
Hobart,-42.8794,147.3294,60.03,77,100,4.61,AU,1644074384
Mandalgovi,45.7625,106.2708,3.81,79,0,6.11,MN,1644074552
Port Hedland,-20.3167,118.5667,86.05,74,98,10.36,AU,1644074383
Vitim,59.4511,112.5578,9.99,95,100,6.85,RU,1644074552
Taltal,-25.4,-70.4833,70.48,70,2,5.32,CL,1644074553
La Ronge,55.1001,-105.2842,-10.95,77,100,6.91,CA,1644074553
Souillac,-20.5167,57.5167,80.98,83,40,13.8,MU,1644074553
Najrān,17.4924,44.1277,75.85,34,29,7.23,SA,1644074554
Tiksi,71.6872,128.8694,-20.56,98,100,7.38,RU,1644074554
Iqaluit,63.7506,-68.5145,-27.31,60,75,1.99,CA,1644074554
Cabo San Lucas,22.8909,-109.9124,66.51,78,0,4.61,MX,1644074555
Nikolskoye,59.7035,30.7861,23.72,91,100,12.01,RU,1644074555
Hong Kong,22.2855,114.1577,61.25,80,98,1.99,HK,1644074495
Dingle,10.9995,122.6711,75.36,80,17,13.53,PH,1644074555
Djibouti,11.5,42.5,78.22,26,6,11.99,DJ,1644074556
Kerema,-7.9631,145.7785,76.44,89,100,9.24,PG,1644074556
Barcarena,-1.5058,-48.6258,86.05,75,100,5.12,BR,1644074557
Husavik,66.0449,-17.3389,10.31,95,98,7.56,IS,1644074557
Hurghada,27.2574,33.8129,61.52,44,0,19.44,EG,1644074390
Saldanha,-33.0117,17.9442,93.25,57,17,14.41,ZA,1644074557
Pitkyaranta,61.5734,31.4792,20.21,94,100,18.1,RU,1644074558
Ushuaia,-54.8,-68.3,60.46,41,0,18.41,AR,1644074558
Nyuksenitsa,60.4128,44.2397,1.13,99,48,4.45,RU,1644074558
Simao,22.7886,100.9748,51.28,99,52,3.04,CN,1644074559
Albany,42.6001,-73.9662,16.95,73,18,5.01,US,1644074547
Tasiilaq,65.6145,-37.6368,18.9,60,100,12.24,GL,1644074559
Cairns,-16.9167,145.7667,77.07,96,100,2.3,AU,1644074359
Namatanai,-3.6667,152.4333,80.56,78,96,8.63,PG,1644074560
Jamestown,42.097,-79.2353,17.02,62,100,5.01,US,1644074560
Lakatoro,-16.0999,167.4164,80.69,84,100,14.14,VU,1644074560
Mto wa Mbu,-3.35,35.85,73.33,73,100,6.22,TZ,1644074560
Santiago de Cao,-7.9589,-79.2392,68.13,83,89,9.22,PE,1644074561
Sabzawār,36.2126,57.6819,49.28,50,75,28.77,IR,1644074561
Kholodnyy,62.7167,147.95,-24.41,73,9,4.47,RU,1644074562
Marawi,7.9986,124.2928,68.65,95,41,1.01,PH,1644074562
Mahébourg,-20.4081,57.7,80.89,83,40,13.8,MU,1644074562
Niono,14.2526,-5.993,90.1,6,0,8.34,ML,1644074563
Bengkulu,-3.8004,102.2655,74.14,96,100,4.18,ID,1644074563
Clyde River,70.4692,-68.5914,-21.77,76,75,12.66,CA,1644074563
Batī,11.1833,40.0167,72.97,35,17,11.43,ET,1644074564
Airai,-8.9266,125.4092,61.03,90,93,1.77,TL,1644074564
Loukhi,66.0764,33.0381,18.37,92,100,14.16,RU,1644074564
Gamba,-2.65,10.0,82.13,67,18,8.97,GA,1644074565
Ribeira Grande,38.5167,-28.7,63.0,67,40,11.5,PT,1644074565
Rawson,-43.3002,-65.1023,61.34,48,0,12.86,AR,1644074565
Birakan,49.0167,131.7,-15.48,99,26,3.15,RU,1644074566
Marabu,4.4148,114.0089,77.14,100,40,0.0,MY,1644074566
Portland,45.5234,-122.6762,45.18,94,100,0.0,US,1644074471
Ugoofaaru,5.6667,73.0,81.77,69,6,13.09,MV,1644074566
Seoul,37.5683,126.9778,24.24,73,0,1.14,KR,1644074529
Carnarvon,-24.8667,113.6333,81.63,71,23,13.13,AU,1644074567
São Filipe,14.8961,-24.4956,75.54,64,0,6.91,CV,1644074567
Fort Nelson,58.8053,-122.7002,-6.21,77,75,4.61,CA,1644074568
Saint-Philippe,-21.3585,55.7679,81.99,85,100,19.55,RE,1644074568
Butaritari,3.0707,172.7902,82.51,70,16,19.86,KI,1644074568
Hilo,19.7297,-155.09,69.39,92,100,8.05,US,1644074326
Mount Isa,-20.7333,139.5,78.57,34,0,8.05,AU,1644074569
Katsuura,35.1333,140.3,34.11,36,53,5.64,JP,1644074569
Asău,46.4333,26.4,43.95,66,59,6.53,RO,1644074569
Punta Arenas,-53.15,-70.9167,62.71,51,75,21.85,CL,1644074299
Yellowknife,62.456,-114.3525,-14.58,83,75,9.22,CA,1644074570
Moba,33.2288,105.0179,27.21,96,100,4.09,CN,1644074570
George Town,5.4112,100.3354,81.9,80,40,2.3,MY,1644074571
Reconquista,-29.15,-59.65,90.82,28,0,14.56,AR,1644074571
Jacqueville,5.2052,-4.4146,87.71,74,28,13.89,CI,1644074571
Saint George,37.1041,-113.5841,41.34,54,0,0.0,US,1644074572
San Andrés,12.5847,-81.7006,78.82,78,40,9.22,CO,1644074572
Tafresh,34.692,50.013,31.87,68,73,17.65,IR,1644074407
Qaqortoq,60.7167,-46.0333,7.3,67,0,4.63,GL,1644074572
Huarmey,-10.0681,-78.1522,74.01,75,18,7.92,PE,1644074573
Fernandina Beach,30.6697,-81.4626,53.06,77,100,5.01,US,1644074573
Barrow,71.2906,-156.7887,-9.38,70,100,12.66,US,1644074574
Logan Lake,50.4998,-120.8025,33.8,99,100,5.44,CA,1644074574
Petropavlovsk-Kamchatskiy,53.0452,158.6483,18.19,63,75,8.95,RU,1644074574
Malé,4.1748,73.5089,81.9,69,11,12.64,MV,1644074575
Abbotsford,49.058,-122.2526,43.84,93,75,5.75,CA,1644074519
Aklavik,68.2191,-135.0107,-33.77,67,0,6.91,CA,1644074575
Kathu,7.9178,98.3332,84.02,71,78,21.34,TH,1644074575
Waingapu,-9.6567,120.2641,79.59,85,100,6.89,ID,1644074576
Abbeville,50.1,1.8333,49.95,75,90,17.05,FR,1644074576
Faanui,-16.4833,-151.75,80.58,72,11,15.75,PF,1644074376
Mulchén,-37.7167,-72.2333,69.66,33,0,7.0,CL,1644074576
Saint Paul Harbor,57.79,-152.4072,36.91,75,20,5.75,US,1644074298
San Cristobal,7.7669,-72.225,68.18,56,79,2.66,VE,1644074577
Zacualpan,21.25,-105.1667,70.72,64,77,3.31,MX,1644074577
Alugan,12.2188,125.4808,79.72,72,90,16.78,PH,1644074578
Erenhot,43.6475,111.9767,4.17,88,5,7.02,CN,1644074578
Khatanga,71.9667,102.5,-33.83,100,81,1.59,RU,1644074578
Vera Cruz,-12.6333,-41.0333,80.33,64,99,1.83,BR,1644074579
Barguzin,53.6167,109.6167,0.57,97,92,1.99,RU,1644074579
Yerofey Pavlovich,53.9667,121.9667,-5.12,93,98,3.65,RU,1644074579
Moose Factory,51.2585,-80.6094,-13.0,69,0,3.44,CA,1644074580
Mwinilunga,-11.7358,24.4293,70.52,86,38,6.31,ZM,1644074580
Kumano,34.3442,132.5894,35.89,62,70,15.3,JP,1644074580
Honningsvåg,70.9821,25.9704,28.42,73,39,26.8,NO,1644074581
Narsaq,60.9167,-46.05,7.02,68,0,6.33,GL,1644074581
Chui,-33.6971,-53.4616,76.21,70,100,6.73,UY,1644074581
Kudahuvadhoo,2.6708,72.8944,82.08,70,86,12.5,MV,1644074582
Surgut,61.25,73.4167,14.18,92,0,7.0,RU,1644074582
Yarmouth,41.7057,-70.2286,26.65,87,100,10.0,US,1644074377
Esperance,-33.8667,121.9,68.13,68,1,19.98,AU,1644074583
Fortuna,40.5982,-124.1573,43.99,95,100,1.01,US,1644074583
Dikson,73.5069,80.5464,-18.29,99,96,3.78,RU,1644074584
Ashland,40.8167,-82.2665,17.74,89,83,5.44,US,1644074585
Bull Savanna,17.8868,-77.5902,78.21,56,6,8.01,JM,1644074586
Salalah,17.0151,54.0924,77.09,69,20,9.22,OM,1644074586
Tucuruí,-3.7661,-49.6725,82.26,75,100,2.06,BR,1644074587
Pisco,-13.7,-76.2167,70.02,83,64,9.22,PE,1644074291
Belaya Gora,68.5333,146.4167,-38.99,100,88,1.97,RU,1644074587
Saint-Ambroise,48.5501,-71.3324,-3.42,90,81,5.97,CA,1644074588
Norman Wells,65.282,-126.8329,-12.42,95,92,6.29,CA,1644074370
Ust'-Karsk,52.7011,118.8077,-10.91,100,97,2.15,RU,1644074588
Chokurdakh,70.6333,147.9167,-31.95,100,100,0.49,RU,1644074589
New Norfolk,-42.7826,147.0587,59.67,62,100,1.12,AU,1644074589
Maniitsoq,65.4167,-52.9,7.18,86,100,13.02,GL,1644074589
Khani,41.9563,42.9566,26.17,93,90,4.09,GE,1644074590
Kruisfontein,-34.0033,24.7314,69.89,72,85,21.68,ZA,1644074449
Anadyr,64.75,177.4833,-21.3,95,5,2.75,RU,1644074590
Gornopravdinsk,60.05,69.9,21.56,96,100,5.5,RU,1644074590
Prachuap Khiri Khan,12.2167,99.75,77.68,80,93,2.3,TH,1644074591
Gongzhuling,43.5008,124.8198,7.47,74,75,5.17,CN,1644074591
Ponta do Sol,32.6667,-17.1,74.71,50,3,10.33,PT,1644074591
Saskylakh,71.9167,114.0833,-28.61,100,89,3.2,RU,1644074592
Hofn,64.2539,-15.2082,28.94,60,100,9.17,IS,1644074592
Mokshan,53.4365,44.6132,15.35,96,97,7.61,RU,1644074592
Havøysund,70.9963,24.6622,27.48,73,68,30.04,NO,1644074375
Pteleos,39.05,22.95,52.68,56,7,2.64,GR,1644074593
Anori,-3.7728,-61.6442,87.3,59,97,2.39,BR,1644074593
Devils Lake,48.1128,-98.8651,12.18,86,100,5.01,US,1644074495
Sādāt,25.6833,83.2833,55.49,61,0,7.23,IN,1644074594
Ust'-Katav,54.9369,58.1656,20.7,94,100,3.36,RU,1644074594
Bandarbeyla,9.4942,50.8122,76.59,66,10,12.44,SO,1644074595
Tete,-16.1564,33.5867,84.29,74,75,4.61,MZ,1644074595
Bredasdorp,-34.5322,20.0403,79.29,64,13,28.77,ZA,1644074595
Acajutla,13.5928,-89.8275,84.79,50,0,8.77,SV,1644074596
Catalina Foothills,32.2979,-110.9187,43.84,24,0,1.01,US,1644074596
Kiama,-34.6833,150.8667,68.58,70,100,3.0,AU,1644074596
Lüderitz,-26.6481,15.1594,72.86,63,7,5.88,NA,1644074597
Yaan,7.3833,8.5667,96.98,9,2,8.59,NG,1644074597
Morón,-34.6534,-58.6198,69.94,79,97,10.38,AR,1644074598
The Valley,18.217,-63.0578,82.26,69,40,18.41,AI,1644074598
Terrace,54.5163,-128.6035,41.43,87,100,8.05,CA,1644074598
Codrington,-38.2667,141.9667,58.17,83,97,8.99,AU,1644074599
Quatre Cocos,-20.2078,57.7625,80.71,81,100,15.7,MU,1644074599
Nālūt,30.3333,10.85,70.52,13,43,7.76,LY,1644074599
Ruston,32.5232,-92.6379,34.84,52,1,4.29,US,1644074600
Tahoua,14.8888,5.2692,82.38,6,0,11.5,NE,1644074600
Bantogon,6.5333,124.0333,78.94,74,99,4.34,PH,1644074597
La Merced,5.4019,-75.8847,64.13,96,100,1.25,CO,1644074600
Hasaki,35.7333,140.8333,28.69,36,99,11.36,JP,1644074601
Santa Cruz de Tenerife,28.4682,-16.2546,74.8,39,0,5.75,ES,1644074601
Takoradze,4.8845,-1.7554,84.94,65,16,13.38,GH,1644074601
Kiryat Gat,31.61,34.7642,56.08,100,72,9.89,IL,1644074602
Guerrero Negro,27.9769,-114.0611,55.36,43,0,5.23,MX,1644074475
Russell,32.3502,-85.1999,38.48,63,0,10.78,US,1644074603
Flin Flon,54.7682,-101.865,-13.16,70,75,8.05,CA,1644074603
Atherton,53.5237,-2.4935,48.42,83,100,5.01,GB,1644074603
Alice Springs,-23.7,133.8833,62.15,77,0,0.0,AU,1644074583
Poselki,53.1324,46.5031,22.6,97,100,4.59,RU,1644074604
Bang Yai,13.8434,100.3625,88.02,62,69,5.01,TH,1644074604
Isla Vista,34.4133,-119.861,56.82,44,0,3.44,US,1644074605
Ulladulla,-35.35,150.4667,66.09,74,88,11.21,AU,1644074605
Dali,25.7,100.1833,42.58,90,62,4.92,CN,1644074605
Cape Town,-33.9258,18.4232,92.12,37,0,5.01,ZA,1644074519
Tambopata,-12.7333,-69.1833,85.89,66,40,6.91,PE,1644074606
Necochea,-38.5473,-58.7368,64.04,79,100,18.5,AR,1644074606
Kavaratti,10.5669,72.642,78.93,61,24,11.32,IN,1644074358
Vila do Maio,15.1333,-23.2167,81.39,78,0,12.37,CV,1644074607
Sistranda,63.7256,8.834,35.91,56,67,32.82,NO,1644074607
Provideniya,64.3833,-173.3,-4.81,86,3,11.95,RU,1644074608
Kumul,42.8,93.45,27.27,28,91,6.91,CN,1644074608
Sobolevo,54.4299,31.8996,22.12,95,100,13.8,RU,1644074608
Stykkisholmur,65.0757,-22.7297,25.97,73,100,11.27,IS,1644074609
Boddam,57.4667,-1.7833,46.78,80,74,26.49,GB,1644074609
East London,-33.0153,27.9116,68.94,88,20,13.8,ZA,1644074609
Waitati,-45.75,170.5667,50.81,75,54,3.51,NZ,1644074610
Balasan,11.4728,123.0878,78.46,77,39,19.01,PH,1644074610
Blagoyevo,63.3667,47.9167,-0.49,99,62,3.74,RU,1644074610
Hualmay,-11.0964,-77.6139,73.42,74,34,7.52,PE,1644074611
Kupang,-10.1667,123.5833,79.68,84,86,7.76,ID,1644074611
Bathsheba,13.2167,-59.5167,83.01,57,20,19.57,BB,1644074611
Viedma,-40.8135,-62.9967,60.33,55,100,17.92,AR,1644074426
Lebu,-37.6167,-73.65,63.61,65,0,17.13,CL,1644074612
Gradiška,45.1411,17.25,44.85,82,100,5.1,BA,1644074612
Longyearbyen,78.2186,15.6401,10.24,61,20,25.32,SJ,1644074612
Broken Hill,-31.95,141.4333,71.31,35,6,12.66,AU,1644074613
Praia,14.9215,-23.5087,81.14,39,0,17.27,CV,1644074613
Pangai,-19.8,-174.35,77.36,92,100,20.18,TO,1644074613
Verkhnevilyuysk,63.4453,120.3167,-19.53,100,96,1.83,RU,1644074614
Qaanaaq,77.484,-69.3632,-1.62,70,81,10.56,GL,1644074614
Goderich,43.7501,-81.7165,16.92,66,100,6.91,CA,1644074509
Samoded,63.6083,40.5111,9.19,94,100,9.06,RU,1644074615
Novovasylivka,46.8315,35.7536,28.81,63,81,6.22,UA,1644074615
Karoi,-16.8099,29.6925,71.42,85,57,4.61,ZW,1644074615
Vardø,70.3705,31.1107,22.98,80,75,24.16,NO,1644074616
Port Keats,-14.25,129.55,79.18,80,100,3.74,AU,1644074616
Okhotsk,59.3833,143.3,-2.78,68,0,17.98,RU,1644074616
Abu Dhabi,24.4667,54.3667,73.51,68,0,4.61,AE,1644074349
Nishihara,26.1842,127.7558,58.28,58,75,18.41,JP,1644074617
Puerto Escondido,15.85,-97.0667,77.58,44,0,4.25,MX,1644074597
Abapó,-18.8333,-63.4667,66.81,98,100,1.39,BO,1644074617
Richards Bay,-28.783,32.0377,73.49,85,98,11.77,ZA,1644074618
São Félix do Xingu,-6.6447,-51.995,82.04,75,98,2.1,BR,1644074618
Nizhniy Odes,63.6445,54.856,-6.02,100,60,3.83,RU,1644074618
Emba,48.8264,58.1442,26.29,90,100,12.97,KZ,1644074619
Helong,42.5397,128.9972,3.72,75,85,9.33,CN,1644074619
São João da Barra,-21.6403,-41.0511,87.89,80,71,16.42,BR,1644074619
Cheney,47.4874,-117.5758,34.77,94,75,4.61,US,1644074620
Laas,46.6166,10.7002,51.3,85,15,4.74,IT,1644074620
Gwanda,-20.9333,29.0,78.33,49,93,11.48,ZW,1644074620
Koslan,63.4564,48.8989,-2.18,100,70,4.03,RU,1644074621
Wawa,9.9022,4.4192,90.32,13,5,5.86,NG,1644074526
Monduli,-3.3,36.45,70.02,67,100,6.51,TZ,1644074621
Pontianak,-0.0333,109.3333,78.78,88,40,5.75,ID,1644074622
Makkah al Mukarramah,21.4267,39.8261,70.72,22,3,14.23,SA,1644074622
Yulara,-25.2406,130.9889,71.44,43,0,6.91,AU,1644074622
Granville,-33.8333,151.0167,71.38,66,75,1.99,AU,1644074623
Alim,9.5649,122.4876,77.72,79,91,12.1,PH,1644074623
Ambon City,-3.6954,128.1814,78.94,89,20,9.22,ID,1644074388
Preobrazheniye,42.9019,133.9064,8.11,61,0,8.5,RU,1644074623
Cajazeiras,-6.8903,-38.5553,92.16,37,31,5.75,BR,1644074624
Barcelos,41.5388,-8.6151,61.92,50,1,4.76,PT,1644074624
Castro,-24.7911,-50.0119,75.06,82,83,8.55,BR,1644074599
Bairiki Village,1.3292,172.9752,80.6,83,20,10.36,KI,1644074624
Bambous Virieux,-20.3428,57.7575,80.85,83,40,13.8,MU,1644074625
Havelock,34.8791,-76.9013,43.03,70,75,8.01,US,1644074625
Daru,-9.0763,143.2092,78.75,90,100,8.14,PG,1644074625
Muroto-misakicho,33.2833,134.15,39.09,55,25,11.77,JP,1644074626
Buala,-8.145,159.5921,81.0,83,90,7.87,SB,1644074626
Alyangula,-13.8483,136.4192,78.67,100,98,2.3,AU,1644074626
Mt. Pleasant,32.7941,-79.8626,49.98,67,0,4.0,US,1644074449
Peace River,56.2501,-117.286,3.51,78,100,4.61,CA,1644074431
Ust-Nera,64.5667,143.2,-23.06,70,23,0.38,RU,1644074627
Naze,28.3667,129.4833,51.62,63,65,17.76,JP,1644074534
Port Elizabeth,-33.918,25.5701,72.1,83,75,14.97,ZA,1644074443
Haines Junction,60.7522,-137.5108,-5.85,84,99,4.61,CA,1644074628
Iisalmi,63.5592,27.1907,21.22,95,100,9.64,FI,1644074604
Tūkrah,32.5341,20.5791,60.84,61,12,17.6,LY,1644074628
Balyqshy,47.0667,51.8667,30.2,93,75,22.37,KZ,1644074629
Lagoa Vermelha,-28.2086,-51.5258,72.75,90,98,9.04,BR,1644074629
Pimentel,-6.8367,-79.9342,71.89,73,0,5.75,PE,1644074630
Elizabeth City,36.2946,-76.2511,40.03,67,0,1.99,US,1644074508
Auki,-8.7676,160.7034,79.34,87,81,5.57,SB,1644074630
Bagnes,46.0833,7.2167,43.11,40,20,20.71,CH,1644074631
Bilma,18.6853,12.9164,74.14,12,0,3.87,NE,1644074631
Mangai,-4.05,19.5333,83.17,59,76,2.26,CD,1644074632
Yakeshi,49.2833,120.7333,-7.87,100,95,4.47,CN,1644074632
La Palma,33.8464,-118.0467,59.38,31,20,1.01,US,1644074287
Matara,5.9485,80.5353,77.61,77,9,8.16,LK,1644074632
Severo-Kuril'sk,50.6789,156.125,28.72,95,100,7.56,RU,1644074633
Soure,-0.7167,-48.5233,81.07,76,100,5.26,BR,1644074633
Bethel,41.3712,-73.414,24.58,79,75,9.22,US,1644074633
Manaquiri,-3.3167,-60.35,84.65,69,97,2.37,BR,1644074634
Faya,18.3851,42.4509,62.71,65,10,6.24,SA,1644074634
Támara,14.15,-87.3333,67.75,68,40,11.5,HN,1644074634
Saint-Augustin,51.226,-58.6502,3.81,93,100,14.83,CA,1644074635
Warrington,53.3925,-2.5802,49.8,85,100,7.0,GB,1644074635
Xuanwu,32.069,118.8138,35.55,47,71,6.96,CN,1644074635
Laguna,38.421,-121.4238,50.34,88,0,0.0,US,1644074636
Jalu,29.0331,21.5482,62.91,37,0,5.48,LY,1644074519
Polovinnoye,54.7914,65.9864,15.31,84,100,9.06,RU,1644074636
Ahipara,-35.1667,173.1667,71.08,96,96,7.43,NZ,1644074636
Yambio,4.5721,28.3955,88.95,15,100,4.92,SS,1644074637
Dolores,-36.3132,-57.6792,72.77,50,61,13.2,AR,1644074637
Itarema,-2.9248,-39.9167,85.95,63,97,15.12,BR,1644074638
Trairi,-3.2778,-39.2689,85.66,63,66,12.26,BR,1644074638
Santa Rosa,14.3122,121.1114,80.58,70,98,14.88,PH,1644074638
Yangi Marg`ilon,40.4272,71.7189,42.22,37,31,4.61,UZ,1644074639
Comodoro Rivadavia,-45.8667,-67.5,67.86,52,0,13.8,AR,1644074639
Port Hardy,50.6996,-127.4199,40.75,100,40,5.75,CA,1644074640
Lavrentiya,65.5833,-171.0,-18.38,94,29,8.48,RU,1644074640
Sydney Mines,46.2367,-60.2177,32.09,96,100,11.5,CA,1644074640
Olafsvik,64.8945,-23.7142,29.35,66,100,20.0,IS,1644074641
Cap Malheureux,-19.9842,57.6142,81.09,79,100,8.99,MU,1644074641
Kismayo,-0.3582,42.5454,79.68,78,100,16.49,SO,1644074642
Consuegra,39.4625,-3.608,59.09,44,99,5.93,ES,1644074642
Marstal,54.8562,10.5173,42.71,81,100,25.93,DK,1644074642
Banda Aceh,5.5577,95.3222,79.47,80,72,7.72,ID,1644074643
Worland,44.0169,-107.9554,25.95,80,40,4.0,US,1644074643
Grindavik,63.8424,-22.4338,28.87,86,75,6.91,IS,1644074644
Pilar,-9.5972,-35.9567,89.53,41,90,10.98,BR,1644074644
Kamaishi,39.2667,141.8833,27.23,69,53,10.8,JP,1644074644
Changtu,42.7788,124.0955,10.69,66,61,4.14,CN,1644074645
Ust-Kuyga,70.0167,135.6,-43.64,100,100,3.18,RU,1644074645
Valdivia,-39.8142,-73.2459,66.29,41,0,4.92,CL,1644074645
Koumra,8.9126,17.5539,93.16,10,99,5.1,TD,1644074646
Isangel,-19.55,169.2667,79.54,90,100,14.25,VU,1644074646
Hohhot,40.8106,111.6522,10.69,56,0,6.71,CN,1644074647
Lagoa,39.05,-27.9833,58.42,71,55,16.13,PT,1644074647
Flinders,-34.5833,150.8552,69.21,68,100,7.0,AU,1644074647
Lorengau,-2.0226,147.2712,80.76,79,27,9.37,PG,1644074624
Qasigiannguit,68.8193,-51.1922,7.05,78,100,4.74,GL,1644074648
Pangnirtung,66.1451,-65.7125,-23.8,69,75,2.3,CA,1644074648
College,64.8569,-147.8028,-0.02,77,40,3.44,US,1644074648
Labuhan,-6.8844,112.2051,79.21,88,100,8.77,ID,1644074649
Kavieng,-2.5744,150.7967,80.82,79,88,5.7,PG,1644074649
Darhan,49.4867,105.9228,-3.39,92,84,5.99,MN,1644074649
Sucúa,-2.4667,-78.1667,75.94,78,40,2.3,EC,1644074650
Līsakovsk,52.5369,62.4936,18.19,85,100,10.47,KZ,1644074650
Xining,36.6167,101.7667,13.98,91,100,4.5,CN,1644074651
Sinnamary,5.3833,-52.95,79.34,84,92,8.5,GF,1644074651
Tautira,-17.7333,-149.15,75.22,74,30,14.65,PF,1644074651
Akdepe,42.0551,59.3788,48.29,72,100,17.13,TM,1644074652
Torbay,47.6666,-52.7314,49.75,95,100,26.46,CA,1644074652
Kahului,20.8947,-156.47,74.84,81,0,4.61,US,1644074652
Igarka,67.4667,86.5833,-10.3,99,83,5.91,RU,1644074653
Port Moresby,-9.4431,147.1797,76.51,88,100,6.13,PG,1644074653
Bariloche,-41.1456,-71.3082,66.24,39,20,6.91,AR,1644074654
Urazovo,50.0836,38.0395,9.75,98,7,4.7,RU,1644074654
Eisenerz,47.5333,14.8833,42.21,79,34,4.12,AT,1644074654
Kirakira,-10.4544,161.9205,80.92,86,89,5.82,SB,1644074371
Constitución,-35.3333,-72.4167,70.23,55,0,11.65,CL,1644074655
Bumba,2.1833,22.4667,93.09,23,79,1.81,CD,1644074655
Vestmannaeyjar,63.4427,-20.2734,31.19,64,20,9.22,IS,1644074655
Novobirilyussy,56.9514,90.6661,18.7,81,100,10.0,RU,1644074656
Xiaoweizhai,26.1903,107.5125,46.02,85,100,1.92,CN,1644074656
Le Pont-de-Claix,45.1244,5.7064,51.37,72,100,4.94,FR,1644074656
Piranshahr,36.701,45.1413,28.58,91,53,8.21,IR,1644074657
Watsa,3.0372,29.5355,87.64,19,99,5.73,CD,1644074657
Pedernales,18.0384,-71.744,78.89,65,16,4.38,DO,1644074659
Sitka,57.0531,-135.33,40.89,87,100,10.36,US,1644074659
Velyka Mykhaylivka,47.0794,29.8514,36.43,58,58,5.19,UA,1644074659
Avarua,-21.2078,-159.775,78.85,78,20,9.22,CK,1644074446
Melfi,40.9965,15.6514,57.49,74,100,4.0,IT,1644074660
Tolbazy,54.0241,55.8825,21.96,89,100,4.27,RU,1644074660
Cañon City,38.441,-105.2424,51.78,44,0,10.0,US,1644074624
São Paulo de Olivença,-3.3783,-68.8725,75.6,91,100,3.8,BR,1644074661
Brae,60.3964,-1.353,42.71,72,97,35.16,GB,1644074661
Sarangani,5.4033,125.4636,81.72,80,47,26.84,PH,1644074596
Virginia Beach,36.8529,-75.978,39.42,62,20,5.99,US,1644074490
Homer,59.6425,-151.5483,39.09,85,100,5.75,US,1644074661
Udachny,66.4167,112.4,-30.89,100,78,3.83,RU,1644074662
Jizan,17.3333,42.6667,79.74,55,7,16.22,SA,1644074662
Alofi,-19.0595,-169.9187,73.29,100,100,5.75,NU,1644074662
Tambura,5.6,27.4667,85.5,15,100,5.77,SS,1644074663
Margate,51.3813,1.3862,50.04,65,82,8.99,GB,1644074663
Pouembout,-21.1333,164.9,75.74,90,29,1.9,NC,1644074664
Yar-Sale,66.8333,70.8333,-11.22,100,58,3.83,RU,1644074664
Port Lincoln,-34.7333,135.8667,65.46,80,100,15.97,AU,1644074665
Meridian,43.6121,-116.3915,25.09,91,0,0.0,US,1644074665
Río Gallegos,-51.6226,-69.2181,66.25,32,40,14.97,AR,1644074665
Council Bluffs,41.2619,-95.8608,25.52,54,0,7.0,US,1644074666
Merke,42.8728,73.1786,35.6,39,0,7.85,KZ,1644074666
Mackenzie,55.2999,-123.1698,39.42,52,0,13.8,CA,1644074666
Nome,64.5011,-165.4064,-2.13,50,0,4.61,US,1644074634
Iranduba,-3.2847,-60.1861,84.49,70,100,2.84,BR,1644074667
Carutapera,-1.195,-46.02,78.62,89,100,3.06,BR,1644074667
Mojo,8.6,39.1167,74.79,13,2,14.81,ET,1644074667
Qinzhou,21.95,108.6167,57.96,63,80,2.95,CN,1644074668
Ploufragan,48.4914,-2.7946,51.58,71,100,11.5,FR,1644074668
Coyhaique,-45.5752,-72.0662,68.61,42,0,4.61,CL,1644074668
Oranjestad,12.524,-70.027,78.75,69,40,17.27,AW,1644074669
Egvekinot,66.3167,-179.1667,-10.32,86,8,13.56,RU,1644074669
Dulag,10.9525,125.0317,77.07,82,76,12.03,PH,1644074669
Harar,9.3094,42.1258,68.63,12,45,13.6,ET,1644074670
Zapolyarnyy,69.4154,30.8136,15.08,87,100,16.75,RU,1644074670
Ukiah,39.1502,-123.2078,52.03,82,0,0.0,US,1644074670
Muisne,0.6,-80.0333,82.51,94,94,4.41,EC,1644074671
Sakakah,29.9697,40.2064,58.57,47,63,16.42,SA,1644074598
Nanga Eboko,4.6833,12.3667,95.81,11,92,2.48,CM,1644074671
Beloha,-25.1667,45.05,78.24,77,100,18.68,MG,1644074672
Mbandaka,0.0487,18.2603,91.81,26,39,5.53,CD,1644074672
Mossamedes,-15.1961,12.1522,79.11,55,38,13.06,AO,1644074673
Hutchinson,38.0608,-97.9298,27.19,74,0,3.0,US,1644074565
Lucapa,-8.4192,20.7447,80.64,64,100,2.91,AO,1644074673
Tuatapere,-46.1333,167.6833,43.07,91,7,3.96,NZ,1644074673
Tadine,-21.55,167.8833,79.52,88,98,5.88,NC,1644074674
Mehamn,71.0357,27.8492,20.26,87,82,17.02,NO,1644074674
Poum,-20.2333,164.0167,80.4,72,78,4.68,NC,1644074674
Biak,-0.9131,122.8766,76.21,86,100,3.62,ID,1644074675
Mayfield,36.7417,-88.6367,23.34,76,0,6.62,US,1644074427
Northam,51.0333,-4.2167,52.43,86,100,26.11,GB,1644074675
Kamra,33.7473,73.5111,48.96,58,68,2.98,PK,1644074676
Pochutla,15.7432,-96.4661,80.82,44,0,3.22,MX,1644074676
Abu Samrah,35.3029,37.1841,49.96,65,5,10.58,SY,1644074676
Kahramanmaraş Province,38.0,37.0,38.03,93,5,2.35,TR,1644074677
Eyrarbakki,63.863,-21.1481,31.24,73,100,5.28,IS,1644074677
Shelburne,44.0787,-80.2041,9.05,83,20,6.91,CA,1644074677
Denpasar,-8.65,115.2167,82.06,83,40,12.66,ID,1644074678
Nhulunbuy,-12.2333,136.7667,77.61,94,100,0.0,AU,1644074678
Tura,25.5198,90.2201,52.29,88,51,0.13,IN,1644074678
Petrozavodsk,61.7849,34.3469,17.06,78,100,4.47,RU,1644074465
Trelew,-43.249,-65.3051,64.26,38,0,11.43,AR,1644074679
Caravelas,-17.7125,-39.2481,85.41,57,15,10.85,BR,1644074679
Shirokiy,49.758,129.523,-16.8,100,30,5.08,RU,1644074679
Saint-Joseph,-21.3667,55.6167,80.98,81,100,16.64,RE,1644074680
Juba,4.8517,31.5825,95.63,11,100,8.12,SS,1644074680
San Patricio,28.017,-97.5169,39.06,54,3,8.08,US,1644074680
Yumen,40.2833,97.2,16.54,36,100,16.49,CN,1644074681
Ostrovnoy,68.0531,39.5131,15.55,81,100,33.11,RU,1644074681
Port Macquarie,-31.4333,152.9167,64.36,67,100,15.32,AU,1644074681
Christchurch,-43.5333,172.6333,53.91,94,100,1.99,NZ,1644074594
Nuuk,64.1835,-51.7216,7.41,78,75,12.66,GL,1644074682
Coos Bay,43.3665,-124.2179,44.92,100,100,4.61,US,1644074682
Buchanan,5.8808,-10.0467,89.56,65,60,13.62,LR,1644074682
Oron,4.8256,8.2343,90.45,43,1,10.47,NG,1644074683
Carnot,4.9409,15.8665,96.89,9,57,7.05,CF,1644074683
Cilaos,-21.1336,55.4719,68.54,99,100,7.99,RE,1644074683
Yeppoon,-23.1333,150.7333,73.18,71,8,19.66,AU,1644074684
Upernavik,72.7868,-56.1549,1.26,95,100,4.56,GL,1644074684
Alexandria,31.2156,29.9553,58.82,63,1,13.0,EG,1644074685
Moree,-29.4667,149.85,64.42,63,8,9.22,AU,1644074685
Diffa,13.3154,12.6113,77.92,13,1,17.18,NE,1644074685
Aykhal,66.0,111.5,-25.01,100,79,5.97,RU,1644074685
La Tijera,19.9,-104.4,59.13,46,46,0.54,MX,1644074686
Gushikawa,26.3544,127.8686,58.23,58,100,11.5,JP,1644074686
Turbat,26.0023,63.044,72.21,47,0,12.71,PK,1644074686
Anzio,41.4853,12.6179,60.44,71,100,7.2,IT,1644074687
Van Buren,35.4368,-94.3483,33.4,74,0,1.01,US,1644074687
Abu Kamal,34.4506,40.9171,56.21,45,7,10.04,SY,1644074687
Roald,62.5833,6.1333,38.34,75,75,11.5,NO,1644074688
Kloulklubed,7.0419,134.2556,81.1,81,21,23.38,PW,1644074688
Chegem,43.2833,43.1333,8.69,86,91,8.61,RU,1644074688
Nouadhibou,20.931,-17.0347,75.18,64,0,13.8,MR,1644074689
Westport,41.1415,-73.3579,26.74,72,20,5.99,US,1644074673
Mayor Pablo Lagerenza,-19.9309,-60.7718,83.66,66,99,11.77,PY,1644074689
Shimoda,34.6667,138.95,35.1,67,2,23.31,JP,1644074690
Talnakh,69.4865,88.3972,-12.75,100,94,2.37,RU,1644074601
Mehrān,33.1222,46.1646,54.88,48,4,8.16,IR,1644074690
Lata,40.1629,-8.3327,67.5,45,4,7.58,PT,1644074690
Thunder Bay,48.4001,-89.3168,1.99,74,100,0.0,CA,1644074691
Bac Lieu,9.285,105.7244,79.11,69,87,19.1,VN,1644074691
Masuguru,-11.3667,38.4167,78.37,86,86,4.5,TZ,1644074691
Saint-Paul,-21.0096,55.2707,82.51,78,100,12.33,RE,1644074692
Alipur,29.3846,70.9116,63.61,26,0,6.22,PK,1644074692
Zhigansk,66.7697,123.3711,-33.7,100,100,4.81,RU,1644074692
Tres Arroyos,-38.3739,-60.2798,63.16,76,100,19.3,AR,1644074693
Beaverlodge,55.2166,-119.4361,36.36,62,34,25.52,CA,1644074693
Belmonte,-15.8631,-38.8828,81.1,78,100,7.94,BR,1644074693
Lodwar,3.1191,35.5973,93.79,20,100,7.49,KE,1644074694
Chilca,-12.5211,-76.7372,77.07,81,81,6.98,PE,1644074694
Vila Franca do Campo,37.7167,-25.4333,61.21,75,100,11.79,PT,1644074695
Karasjok,69.4719,25.5112,21.31,92,100,14.54,NO,1644074695
Yārāda,17.65,83.2667,73.72,73,20,2.3,IN,1644074695
Nantucket,41.2835,-70.0995,26.96,82,100,19.57,US,1644074493
Kinkala,-4.3614,14.7644,86.31,69,91,2.75,CG,1644074696
Strezhevoy,60.7333,77.5889,13.98,96,100,2.15,RU,1644074412
Balkanabat,39.5108,54.3671,44.1,76,97,15.41,TM,1644074696
Dukat,62.55,155.55,-22.92,75,4,2.39,RU,1644074696
Ayan,56.45,138.1667,-3.44,71,100,15.41,RU,1644074697
Say,13.1007,2.3689,86.56,8,4,10.94,NE,1644074697
Jidong,45.2167,131.0833,-6.9,91,35,6.38,CN,1644074698
Grand Gaube,-20.0064,57.6608,81.0,79,100,7.0,MU,1644074698
Along,28.1667,94.7667,47.91,98,100,2.39,IN,1644074699
Bayan,46.0833,127.4,-10.64,100,75,4.27,CN,1644074699
Sechura,-5.5569,-80.8222,77.59,60,71,5.53,PE,1644074699
Cockburn Town,21.4612,-71.1419,76.06,70,4,20.96,TC,1644074700
Sioux Lookout,50.1001,-91.917,-3.62,77,100,10.36,CA,1644074700
Crixás,-14.5489,-49.9692,86.65,63,52,1.99,BR,1644074700
Lodja,-3.4833,23.4333,79.16,65,97,1.21,CD,1644074701
Moses Lake,47.1301,-119.2781,37.6,93,100,4.61,US,1644074701
Urengoy,65.9667,78.3667,-12.3,100,68,4.99,RU,1644074701
Zakamensk,50.3741,103.2863,-1.84,95,100,3.76,RU,1644074702
Newcastle,-32.9272,151.7765,70.72,76,100,11.01,AU,1644074578
Inhambane,-23.865,35.3833,84.18,65,75,17.27,MZ,1644074703
Tibati,6.4667,12.6333,92.08,12,22,7.38,CM,1644074703
Thohoyandou,-22.9456,30.485,77.83,59,91,16.11,ZA,1644074704
Kisesa,-3.0833,34.15,68.63,81,100,5.61,TZ,1644074704
Juegang,32.3174,121.1855,36.91,60,62,6.91,CN,1644074704
Baijiantan,45.6333,85.1833,4.3,85,15,3.31,CN,1644074705
Soe,-9.8607,124.284,67.3,95,98,2.93,ID,1644074705
Wah,33.798,72.6957,56.01,36,100,2.8,PK,1644074705
Henties Bay,-22.116,14.2845,71.85,70,9,10.83,NA,1644074706
Kalmunai,7.4167,81.8167,76.51,77,4,10.51,LK,1644074706
La Seyne-sur-Mer,43.0982,5.8847,65.25,55,64,5.01,FR,1644074706
Kargopol',61.5071,38.9456,9.23,95,95,7.16,RU,1644074707
Clonakilty,51.6231,-8.8706,51.1,81,100,30.27,IE,1644074707
Mangaratiba,-22.9597,-44.0406,92.53,70,61,4.23,BR,1644074707
Acapulco de Juárez,16.8634,-99.8901,76.82,73,20,0.0,MX,1644074518
Pierre,44.3683,-100.351,33.28,51,0,9.22,US,1644074296
Ajdabiya,30.7554,20.2263,62.73,42,0,9.1,LY,1644074708
Qeshm,26.9581,56.2719,71.49,69,4,19.17,IR,1644074708
Revúca,48.6835,20.1173,42.3,70,26,1.99,SK,1644074709
Novo Oriente,-5.5344,-40.7742,88.3,50,77,5.88,BR,1644074709
Juneau,58.3019,-134.4197,39.2,94,100,5.99,US,1644074686
Ahome,25.9167,-109.1833,53.55,65,20,3.33,MX,1644074710
Koumac,-20.5667,164.2833,77.67,80,66,0.69,NC,1644074710
Teguise,29.0605,-13.564,66.42,64,0,9.22,ES,1644074710
Road Town,18.4167,-64.6167,75.24,88,40,9.22,VG,1644074464
Charter Township of Clinton,42.587,-82.9199,18.84,80,17,0.98,US,1644074710
Bria,6.5423,21.9863,97.05,11,84,7.58,CF,1644074711
Atar,20.5169,-13.0499,90.64,5,0,5.48,MR,1644074711
Sørland,67.667,12.6934,40.84,79,84,26.57,NO,1644074533
Gueugnon,46.6036,4.0629,47.17,55,7,4.83,FR,1644074712
Dudinka,69.4058,86.1778,-15.5,100,96,4.21,RU,1644074713
Oddur,4.1213,43.8894,90.3,13,35,10.0,SO,1644074713
Qiqihar,47.3408,123.9672,-3.71,91,77,6.08,CN,1644074713
Vicuña,-30.0319,-70.7081,88.77,26,0,7.16,CL,1644074714
Gambiran,-6.7988,111.4951,76.14,92,100,5.28,ID,1644074714
Salinas,36.6777,-121.6555,53.98,64,0,6.91,US,1644074516
Cabedelo,-6.9811,-34.8339,86.67,60,9,11.88,BR,1644074714
Henderson,36.0397,-114.9819,42.12,36,0,6.91,US,1644074425
Nemuro,43.3236,145.575,22.59,70,93,21.59,JP,1644074715
Talcahuano,-36.7167,-73.1167,69.48,56,0,8.05,CL,1644074715
Waitara,-38.925,174.25,69.22,96,100,21.61,NZ,1644074715
Klaksvík,62.2266,-6.589,38.32,69,99,41.38,FO,1644074716
Buluang,13.3068,123.3425,71.65,93,45,4.43,PH,1644074716
Arman',59.7,150.1667,2.01,71,23,12.19,RU,1644074717
Sefophe,-22.1833,27.9667,85.42,34,79,10.4,BW,1644074717
Pevek,69.7008,170.3133,-28.19,99,20,2.82,RU,1644074717
Boende,-0.2167,20.8667,96.62,25,73,1.77,CD,1644074718
Chumikan,54.7183,135.315,-0.74,74,100,12.35,RU,1644074718
Mandan,46.8267,-100.8896,38.03,74,75,25.32,US,1644074448
Verkhoyansk,67.5447,133.385,-43.8,100,59,1.34,RU,1644074719
Swan Hill,-35.3378,143.5544,69.01,36,88,6.42,AU,1644074719
Sulangan,11.1373,123.7228,80.13,74,55,20.62,PH,1644074720
Panjāb,34.388,67.0233,19.89,97,97,4.29,AF,1644074720
Jinchang,38.4953,102.1739,15.91,83,100,6.2,CN,1644074720
Ciudad de Armería,18.9333,-103.9667,76.3,53,35,2.82,MX,1644074721
Hobyo,5.3505,48.5268,77.85,67,14,14.9,SO,1644074721
Bani Walid,31.7566,13.9942,72.45,14,66,5.73,LY,1644074721
Shingū,33.7333,135.9833,38.91,65,13,12.21,JP,1644074722
Jatiroto,-7.8833,111.1167,75.0,88,96,1.19,ID,1644074722
Berdigestyakh,62.0989,126.6992,-21.41,100,99,0.4,RU,1644074722
La Sarre,48.8002,-79.1996,-6.99,94,40,4.81,CA,1644074723
Yazman,29.1212,71.7446,66.51,25,0,9.4,PK,1644074724
Provost,52.3501,-110.2683,14.18,97,88,4.7,CA,1644074724
Cherskiy,68.75,161.3,-32.84,96,15,1.92,RU,1644074724
Monrovia,6.3005,-10.7969,89.37,64,11,13.49,LR,1644074725
Inuvik,68.3499,-133.7218,-33.74,71,0,0.0,CA,1644074483
Suez,29.9737,32.5263,61.45,42,20,6.24,EG,1644074725
Fare,-16.7,-151.0167,80.62,70,9,15.57,PF,1644074726
Scarborough,54.2797,-0.4044,49.08,80,100,7.0,GB,1644074726
Shahreza,32.0339,51.8794,39.0,41,0,8.05,IR,1644074726
Riohacha,11.5444,-72.9072,86.11,54,40,11.5,CO,1644074727
Porbandar,21.6422,69.6093,69.24,61,0,6.78,IN,1644074727
Port-Cartier,50.0334,-66.8654,3.74,73,100,6.73,CA,1644074727
Winnemucca,40.973,-117.7357,33.28,45,76,1.74,US,1644074728
Cuenca,-2.8833,-78.9833,64.53,59,20,3.44,EC,1644074454
